{"type":"FeatureCollection","features":[{"type":"Feature","properties":{"Location_ID":"1-11088419348","HSCA_start_date":"09/08/2021","Name":"Whitehill House Dental Practice","Telephone_Number":"1422240874","Type_Sector":"Primary Dental Care","Directorate":"Primary medical services","Category":"Dentists","Local_Authority":"Calderdale","Street_Address":"Whitehill Road","Address_Line_2":"Illingworth","City":"Halifax","County":"West Yorkshire","Postal_Code":"HX2 9HD","UPRN":"1.00052E+11","Latitude":"53.751865","Longitude":"-1.891881","Constituency":"Halifax"},"geometry":{"type":"Point","coordinates":[-1.891881,53.751865]}},{"type":"Feature","properties":{"Location_ID":"1-12068961815","HSCA_start_date":"05/05/2022","Name":"J G Pearson Dental Surgeons - Southgate","Telephone_Number":"1422372623","Type_Sector":"Primary Dental Care","Directorate":"Primary medical services","Category":"Dentists","Local_Authority":"Calderdale","Street_Address":"98 Southgate","City":"Elland","County":"West Yorkshire","Postal_Code":"HX5 0EP","UPRN":"1.00052E+11","Latitude":"53.684505","Longitude":"-1.836336","Constituency":"Calder Valley"},"geometry":{"type":"Point","coordinates":[-1.836336,53.684505]}},{"type":"Feature","properties":{"Location_ID":"1-12371306351","HSCA_start_date":"12/01/2022","Name":"K S Hunjan & Associates","Telephone_Number":"1422647490","Web_Address":"www.hunjandental.com","Type_Sector":"Primary Dental Care","Directorate":"Primary medical services","Category":"Dentists","Local_Authority":"Calderdale","Street_Address":"3 Parkinson Lane","City":"Halifax","County":"West Yorkshire","Postal_Code":"HX1 3XA","Latitude":"53.71852","Longitude":"-1.874676","Constituency":"Halifax"},"geometry":{"type":"Point","coordinates":[-1.874676,53.71852]}},{"type":"Feature","properties":{"Location_ID":"1-13134174655","HSCA_start_date":"18/07/2022","Name":"Carr Wood House Dental Surgery","Type_Sector":"Primary Dental Care","Directorate":"Primary medical services","Category":"Dentists","Local_Authority":"Calderdale","Street_Address":"68 Carr House Road","Address_Line_2":"Shelf","City":"Halifax","Postal_Code":"HX3 7RJ","UPRN":"2.00002E+11","Latitude":"53.75723","Longitude":"-1.805794","Constituency":"Halifax"},"geometry":{"type":"Point","coordinates":[-1.805794,53.75723]}},{"type":"Feature","properties":{"Location_ID":"1-1315873667","HSCA_start_date":"30/05/2014","Name":"West Park Practice","Telephone_Number":"1484711178","Type_Sector":"Primary Dental Care","Directorate":"Primary medical services","Category":"Dentists","Local_Authority":"Calderdale","Street_Address":"Unit 1","Address_Line_2":"42 Park Street","City":"Brighouse","County":"West Yorkshire","Postal_Code":"HD6 1JL","UPRN":"1.00052E+11","Latitude":"53.701575","Longitude":"-1.780575","Constituency":"Calder Valley"},"geometry":{"type":"Point","coordinates":[-1.780575,53.701575]}},{"type":"Feature","properties":{"Location_ID":"1-13192244632","HSCA_start_date":"01/07/2022","Name":"Dental Care Centre Elland","Telephone_Number":"1422372623","Web_Address":"www.ellandsmiles.co.uk","Type_Sector":"Primary Dental Care","Directorate":"Primary medical services","Category":"Dentists","Local_Authority":"Calderdale","Street_Address":"98 Southgate","City":"Elland","County":"West Yorkshire","Postal_Code":"HX5 0EP","UPRN":"1.00052E+11","Latitude":"53.684505","Longitude":"-1.836336","Constituency":"Calder Valley"},"geometry":{"type":"Point","coordinates":[-1.836336,53.684505]}},{"type":"Feature","properties":{"Location_ID":"1-14444405398","HSCA_start_date":"01/12/2022","Name":"Bailiff Bridge Dental Practice","Telephone_Number":"1484716546","Type_Sector":"Primary Dental Care","Directorate":"Primary medical services","Category":"Dentists","Local_Authority":"Calderdale","Street_Address":"629-631","Address_Line_2":"Bradford Road","City":"Brighouse","Postal_Code":"HD6 4DN","UPRN":"1.00052E+11","Latitude":"53.722001","Longitude":"-1.777314","Constituency":"Calder Valley"},"geometry":{"type":"Point","coordinates":[-1.777314,53.722001]}},{"type":"Feature","properties":{"Location_ID":"1-1610731351","HSCA_start_date":"08/09/2014","Name":"Fresh Smiles Clinic","Type_Sector":"Primary Dental Care","Directorate":"Primary medical services","Category":"Dentists","Local_Authority":"Calderdale","Street_Address":"2 High Street","City":"Brighouse","County":"West Yorkshire","Postal_Code":"HD6 1DE","Latitude":"53.703842","Longitude":"-1.780636","Constituency":"Calder Valley"},"geometry":{"type":"Point","coordinates":[-1.780636,53.703842]}},{"type":"Feature","properties":{"Location_ID":"1-1670753993","HSCA_start_date":"13/10/2014","Name":"West Vale Dental Surgery","Telephone_Number":"1422370282","Type_Sector":"Primary Dental Care","Directorate":"Primary medical services","Category":"Dentists","Local_Authority":"Calderdale","Street_Address":"64 Saddleworth Road","Address_Line_2":"West Vale","City":"Halifax","County":"West Yorkshire","Postal_Code":"HX4 8AG","UPRN":"10006739965","Latitude":"53.686554","Longitude":"-1.855057","Constituency":"Calder Valley"},"geometry":{"type":"Point","coordinates":[-1.855057,53.686554]}},{"type":"Feature","properties":{"Location_ID":"1-1695451654","HSCA_start_date":"05/10/2014","Name":"Hebden Bridge Dental Care","Telephone_Number":"1422843162","Type_Sector":"Primary Dental Care","Directorate":"Primary medical services","Category":"Dentists","Local_Authority":"Calderdale","Street_Address":"16 New Road","City":"Hebden Bridge","County":"West Yorkshire","Postal_Code":"HX7 8AD","UPRN":"1.00052E+11","Latitude":"53.740126","Longitude":"-2.010182","Constituency":"Calder Valley"},"geometry":{"type":"Point","coordinates":[-2.010182,53.740126]}},{"type":"Feature","properties":{"Location_ID":"1-174038379","HSCA_start_date":"07/04/2011","Name":"S & S Care - Brighouse","Telephone_Number":"1484714717","Web_Address":"www.adhewett.co.uk","Type_Sector":"Primary Dental Care","Directorate":"Primary medical services","Category":"Dentists","Local_Authority":"Calderdale","Street_Address":"46-48 Bradford Road","City":"Brighouse","County":"West Yorkshire","Postal_Code":"HD6 1RY","UPRN":"10090221352","Latitude":"53.704279","Longitude":"-1.778377","Constituency":"Calder Valley"},"geometry":{"type":"Point","coordinates":[-1.778377,53.704279]}},{"type":"Feature","properties":{"Location_ID":"1-187626113","HSCA_start_date":"28/04/2011","Name":"Blanc Dental Care","Type_Sector":"Primary Dental Care","Directorate":"Primary medical services","Category":"Dentists","Local_Authority":"Calderdale","Street_Address":"8 Hall Street","City":"Todmorden","County":"Lancashire","Postal_Code":"OL14 7AD","UPRN":"1.00052E+11","Latitude":"53.712918","Longitude":"-2.098748","Constituency":"Calder Valley"},"geometry":{"type":"Point","coordinates":[-2.098748,53.712918]}},{"type":"Feature","properties":{"Location_ID":"1-188337768","HSCA_start_date":"07/06/2011","Name":"Bupa Dental Care Sowerby Bridge","Telephone_Number":"1422316315","Type_Sector":"Primary Dental Care","Directorate":"Primary medical services","Category":"Dentists","Local_Authority":"Calderdale","Street_Address":"Bolton Brow","City":"Sowerby Bridge","County":"West Yorkshire","Postal_Code":"HX6 2AG","UPRN":"10035037057","Latitude":"53.709721","Longitude":"-1.903957","Constituency":"Halifax"},"geometry":{"type":"Point","coordinates":[-1.903957,53.709721]}},{"type":"Feature","properties":{"Location_ID":"1-189434015","HSCA_start_date":"06/04/2011","Name":"Bupa Dental Care Mytholmroyd","Telephone_Number":"1422881234","Type_Sector":"Primary Dental Care","Directorate":"Primary medical services","Category":"Dentists","Local_Authority":"Calderdale","Street_Address":"Burnley Road","Address_Line_2":"Mytholmroyd","City":"Hebden Bridge","County":"West Yorkshire","Postal_Code":"HX7 5LF","UPRN":"10090365203","Latitude":"53.731024","Longitude":"-1.982259","Constituency":"Calder Valley"},"geometry":{"type":"Point","coordinates":[-1.982259,53.731024]}},{"type":"Feature","properties":{"Location_ID":"1-190164067","HSCA_start_date":"20/07/2011","Name":"Beechwood Dental Practice","Telephone_Number":"1422356853","Type_Sector":"Primary Dental Care","Directorate":"Primary medical services","Category":"Dentists","Local_Authority":"Calderdale","Street_Address":"Beechwood Community Health Centre","Address_Line_2":"60b Keighley Road","City":"Halifax","County":"West Yorkshire","Postal_Code":"HX2 8AL","UPRN":"1.00052E+11","Latitude":"53.743244","Longitude":"-1.881168","Constituency":"Halifax"},"geometry":{"type":"Point","coordinates":[-1.881168,53.743244]}},{"type":"Feature","properties":{"Location_ID":"1-194386757","HSCA_start_date":"01/04/2011","Name":"Moorside Dental Practice","Telephone_Number":"1422229616","Web_Address":"www.moorsidedental.com","Type_Sector":"Primary Dental Care","Directorate":"Primary medical services","Category":"Dentists","Local_Authority":"Calderdale","Street_Address":"1 Forest Grove","Address_Line_2":"Keighley Road","City":"Halifax","County":"West Yorkshire","Postal_Code":"HX2 8AU","UPRN":"10035030179","Latitude":"53.743912","Longitude":"-1.884108","Constituency":"Halifax"},"geometry":{"type":"Point","coordinates":[-1.884108,53.743912]}},{"type":"Feature","properties":{"Location_ID":"1-194497022","HSCA_start_date":"12/05/2011","Name":"Clough Dental Surgery","Telephone_Number":"1422834392","Type_Sector":"Primary Dental Care","Directorate":"Primary medical services","Category":"Dentists","Local_Authority":"Calderdale","Street_Address":"Bolton Brow","City":"Sowerby Bridge","County":"West Yorkshire","Postal_Code":"HX6 2AL","UPRN":"10090365435","Latitude":"53.710241","Longitude":"-1.902835","Constituency":"Halifax"},"geometry":{"type":"Point","coordinates":[-1.902835,53.710241]}},{"type":"Feature","properties":{"Location_ID":"1-197259908","HSCA_start_date":"02/06/2011","Name":"Azam & Associates Healthcare Limited","Telephone_Number":"1422364651","Type_Sector":"Primary Dental Care","Directorate":"Primary medical services","Category":"Dentists","Local_Authority":"Calderdale","Street_Address":"32 Prescott Street","City":"Halifax","County":"West Yorkshire","Postal_Code":"HX1 2QW","UPRN":"1.00052E+11","Latitude":"53.719104","Longitude":"-1.861054","Constituency":"Halifax"},"geometry":{"type":"Point","coordinates":[-1.861054,53.719104]}},{"type":"Feature","properties":{"Location_ID":"1-198891612","HSCA_start_date":"11/04/2011","Name":"Walrus Dental Care Limited","Telephone_Number":"1422347176","Type_Sector":"Primary Dental Care","Directorate":"Primary medical services","Category":"Dentists","Local_Authority":"Calderdale","Street_Address":"31 Highroadwell Lane","City":"Halifax","County":"West Yorkshire","Postal_Code":"HX2 0LY","UPRN":"1.00052E+11","Latitude":"53.726803","Longitude":"-1.898432","Constituency":"Halifax"},"geometry":{"type":"Point","coordinates":[-1.898432,53.726803]}},{"type":"Feature","properties":{"Location_ID":"1-199706989","HSCA_start_date":"26/08/2011","Name":"Elland Practice Limited","Telephone_Number":"1422370353","Type_Sector":"Primary Dental Care","Directorate":"Primary medical services","Category":"Dentists","Local_Authority":"Calderdale","Street_Address":"Lowfields Place","Address_Line_2":"Victoria Road","City":"Elland","County":"West Yorkshire","Postal_Code":"HX5 0AB","UPRN":"1.00052E+11","Latitude":"53.684013","Longitude":"-1.838261","Constituency":"Calder Valley"},"geometry":{"type":"Point","coordinates":[-1.838261,53.684013]}},{"type":"Feature","properties":{"Location_ID":"1-2053119199","HSCA_start_date":"30/11/2015","Name":"Copley Dental Care","Telephone_Number":"1422355667","Type_Sector":"Primary Dental Care","Directorate":"Primary medical services","Category":"Dentists","Local_Authority":"Calderdale","Street_Address":"Glendene","Address_Line_2":"Wakefield Road, Copley","City":"Halifax","County":"West Yorkshire","Postal_Code":"HX3 0UA","UPRN":"1.00051E+11","Latitude":"53.700026","Longitude":"-1.871779","Constituency":"Halifax"},"geometry":{"type":"Point","coordinates":[-1.871779,53.700026]}},{"type":"Feature","properties":{"Location_ID":"1-2127722111","HSCA_start_date":"13/07/2015","Name":"Skircoat Green Dental Practice Ltd","Telephone_Number":"1422353520","Type_Sector":"Primary Dental Care","Directorate":"Primary medical services","Category":"Dentists","Local_Authority":"Calderdale","Street_Address":"341 Skircoat Green Road","City":"Halifax","County":"West Yorkshire","Postal_Code":"HX3 0LX","UPRN":"1.00052E+11","Latitude":"53.703659","Longitude":"-1.862966","Constituency":"Halifax"},"geometry":{"type":"Point","coordinates":[-1.862966,53.703659]}},{"type":"Feature","properties":{"Location_ID":"1-229138982","HSCA_start_date":"30/06/2011","Name":"K S Hunjan & Associates Dental Practice Halifax","Telephone_Number":"1422353377","Type_Sector":"Primary Dental Care","Directorate":"Primary medical services","Category":"Dentists","Local_Authority":"Calderdale","Street_Address":"3 Westgate","City":"Halifax","County":"West Yorkshire","Postal_Code":"HX1 1DJ","UPRN":"1.00052E+11","Latitude":"53.721496","Longitude":"-1.859089","Constituency":"Halifax"},"geometry":{"type":"Point","coordinates":[-1.859089,53.721496]}},{"type":"Feature","properties":{"Location_ID":"1-2512892470","HSCA_start_date":"17/03/2016","Name":"The Old Church Dental Practice","Telephone_Number":"1422368059","Type_Sector":"Primary Dental Care","Directorate":"Primary medical services","Category":"Dentists","Local_Authority":"Calderdale","Street_Address":"Leeds Road","Address_Line_2":"Lightcliffe","City":"Halifax","County":"West Yorkshire","Postal_Code":"HX3 8NU","Latitude":"53.727637","Longitude":"-1.803172","Constituency":"Calder Valley"},"geometry":{"type":"Point","coordinates":[-1.803172,53.727637]}},{"type":"Feature","properties":{"Location_ID":"1-275380497","HSCA_start_date":"31/07/2011","Name":"Todmorden","Telephone_Number":"1706812295","Web_Address":"www.skexceldental.net","Type_Sector":"Primary Dental Care","Directorate":"Primary medical services","Category":"Dentists","Local_Authority":"Calderdale","Street_Address":"Natwest Bank Chambers","Address_Line_2":"6 Rochdale Road","City":"Todmorden","County":"Lancashire","Postal_Code":"OL14 5AA","UPRN":"10090365438","Latitude":"53.713077","Longitude":"-2.098113","Constituency":"Calder Valley"},"geometry":{"type":"Point","coordinates":[-2.098113,53.713077]}},{"type":"Feature","properties":{"Location_ID":"1-285686345","HSCA_start_date":"03/10/2011","Name":"Dental Clinic, St John's Health Centre","Type_Sector":"Primary Dental Care","Directorate":"Primary medical services","Category":"Dentists","Local_Authority":"Calderdale","Street_Address":"Lightowler Road","City":"Halifax","County":"West Yorkshire","Postal_Code":"HX1 5ND","Latitude":"53.724149","Longitude":"-1.876963","Constituency":"Halifax"},"geometry":{"type":"Point","coordinates":[-1.876963,53.724149]}},{"type":"Feature","properties":{"Location_ID":"1-285715613","HSCA_start_date":"03/10/2011","Name":"Dental Clinic, Todmorden Health Centre","Telephone_Number":"1706811123","Type_Sector":"Primary Dental Care","Directorate":"Primary medical services","Category":"Dentists","Local_Authority":"Calderdale","Street_Address":"Lower George Street","Address_Line_2":"Off Halifax Road","City":"Todmorden","County":"West Yorkshire","Postal_Code":"OL14 5QG","Latitude":"53.713685","Longitude":"-2.095538","Constituency":"Calder Valley"},"geometry":{"type":"Point","coordinates":[-2.095538,53.713685]}},{"type":"Feature","properties":{"Location_ID":"1-471134988","HSCA_start_date":"06/09/2012","Name":"The Dental Surgery","Telephone_Number":"1484721157","Type_Sector":"Primary Dental Care","Directorate":"Primary medical services","Category":"Dentists","Local_Authority":"Calderdale","Street_Address":"10 Church Street","City":"Brighouse","County":"West Yorkshire","Postal_Code":"HD6 3NF","UPRN":"1.00052E+11","Latitude":"53.690847","Longitude":"-1.791349","Constituency":"Calder Valley"},"geometry":{"type":"Point","coordinates":[-1.791349,53.690847]}},{"type":"Feature","properties":{"Location_ID":"1-507499990","HSCA_start_date":"14/11/2012","Name":"Town Hall Dental","Telephone_Number":"1422353568","Type_Sector":"Primary Dental Care","Directorate":"Primary medical services","Category":"Dentists","Local_Authority":"Calderdale","Street_Address":"The Old Town Hall","Address_Line_2":"Thornton Square","City":"Brighouse","County":"West Yorkshire","Postal_Code":"HD6 1EA","UPRN":"10006738313","Latitude":"53.701364","Longitude":"-1.781694","Constituency":"Calder Valley"},"geometry":{"type":"Point","coordinates":[-1.781694,53.701364]}},{"type":"Feature","properties":{"Location_ID":"1-584666125","HSCA_start_date":"04/03/2013","Name":"Calderdale Royal Hospital","Type_Sector":"Independent Healthcare Org","Directorate":"Primary medical services","Category":"Dentists","Local_Authority":"Calderdale","Street_Address":"Dryclough Lane","Address_Line_2":"Salterhebble","City":"Halifax","Postal_Code":"HX3 0PW","UPRN":"1.00052E+11","Latitude":"53.704821","Longitude":"-1.857509","Constituency":"Halifax"},"geometry":{"type":"Point","coordinates":[-1.857509,53.704821]}},{"type":"Feature","properties":{"Location_ID":"1-7298801090","HSCA_start_date":"21/10/2019","Name":"Ripponden Dental Care","Telephone_Number":"1422824875","Web_Address":"www.shinedental.co.uk","Type_Sector":"Primary Dental Care","Directorate":"Primary medical services","Category":"Dentists","Local_Authority":"Calderdale","Street_Address":"33 Oldham Road","City":"Sowerby Bridge","Postal_Code":"HX6 4DN","UPRN":"1.00052E+11","Latitude":"53.673682","Longitude":"-1.942563","Constituency":"Calder Valley"},"geometry":{"type":"Point","coordinates":[-1.942563,53.673682]}},{"type":"Feature","properties":{"Location_ID":"1-7548615979","HSCA_start_date":"26/09/2019","Name":"Mydentist, Broad Street Plaza, Halifax","Telephone_Number":"1204799799","Web_Address":"www.mydentist.co.uk","Type_Sector":"Primary Dental Care","Directorate":"Primary medical services","Category":"Dentists","Local_Authority":"Calderdale","Street_Address":"Broad Street Plaza","City":"Halifax","Postal_Code":"HX1 1UX","UPRN":"10093209759","Latitude":"53.725116","Longitude":"-1.860261","Constituency":"Halifax"},"geometry":{"type":"Point","coordinates":[-1.860261,53.725116]}},{"type":"Feature","properties":{"Location_ID":"1-9068722863","HSCA_start_date":"08/07/2020","Name":"Saltaire Orthodontics","Type_Sector":"Primary Dental Care","Directorate":"Primary medical services","Category":"Dentists","Local_Authority":"Calderdale","Street_Address":"8-12 Crossley Street","City":"Halifax","Postal_Code":"HX1 1UG","UPRN":"1.00052E+11","Latitude":"53.723907","Longitude":"-1.860809","Constituency":"Halifax"},"geometry":{"type":"Point","coordinates":[-1.860809,53.723907]}}]}