{"type":"FeatureCollection","features":[{"type":"Feature","properties":{"NAME":"Hippodrome Theatre","INFORMATION":"http://www.todhip.org/","Address":"Halifax Road, Todmorden","Postcode":"OL14 5BB","Northings":"424195","Eastings":"393921"},"geometry":{"type":"Point","coordinates":[-2.093584,53.714136]}},{"type":"Feature","properties":{"NAME":"Victoria Theatre","INFORMATION":"http://www.calderdale.gov.uk/victoria/","Address":"Fountain Street, Halifax","Postcode":"HX1 1BP","Northings":"424993","Eastings":"409225"},"geometry":{"type":"Point","coordinates":[-1.861681,53.721265]}},{"type":"Feature","properties":{"NAME":"Halifax Playhouse","INFORMATION":"http://home.btconnect.com/playhouse1/index.html","Address":"King Cross Street, Halifax","Postcode":"HX1 2SH","Northings":"424969","Eastings":"408921"},"geometry":{"type":"Point","coordinates":[-1.866289,53.721055]}},{"type":"Feature","properties":{"NAME":"Hebden Bridge Little Theatre","INFORMATION":"http://hblt.co.uk/","Address":"Holme Street Hebden Bridge","Postcode":"HX7 8EE","Northings":"427123","Eastings":"399168"},"geometry":{"type":"Point","coordinates":[-2.014093,53.740489]}},{"type":"Feature","properties":{"NAME":"Square Chapel","INFORMATION":"http://www.squarechapel.co.uk/","Address":"10 Square Road, Halifax","Postcode":"HX1 1QG","Northings":"425118","Eastings":"409660"},"geometry":{"type":"Point","coordinates":[-1.855085,53.722381]}}]}